header: 
  seq: 25634
  stamp: 
    secs: 1450179904
    nsecs: 728676790
  frame_id: world
pose: 
  position: 
    x: 0.288285851479
    y: 0.0932133719325
    z: 0.763555288315
  orientation: 
    x: -0.00211019744165
    y: 0.00373068754561
    z: 8.10200799606e-05
    w: 0.999990820885
---
header: 
  seq: 25635
  stamp: 
    secs: 1450179904
    nsecs: 736689016
  frame_id: world
pose: 
  position: 
    x: 0.288291662931
    y: 0.0932132080197
    z: 0.763554275036
  orientation: 
    x: -0.00183077366091
    y: 0.00325915124267
    z: 6.21835933998e-05
    w: 0.999993085861
---
header: 
  seq: 25636
  stamp: 
    secs: 1450179904
    nsecs: 745067107
  frame_id: world
pose: 
  position: 
    x: 0.288286745548
    y: 0.0932101979852
    z: 0.763560056686
  orientation: 
    x: -0.00196772930212
    y: 0.00345758185722
    z: 6.42957675154e-05
    w: 0.999992132187
---
header: 
  seq: 25637
  stamp: 
    secs: 1450179904
    nsecs: 753305624
  frame_id: world
pose: 
  position: 
    x: 0.288299620152
    y: 0.0932108536363
    z: 0.763568758965
  orientation: 
    x: -0.00199105474167
    y: 0.00334517029114
    z: 0.000156951035024
    w: 0.999992489815
---
header: 
  seq: 25638
  stamp: 
    secs: 1450179904
    nsecs: 761737565
  frame_id: world
pose: 
  position: 
    x: 0.288289576769
    y: 0.0932071506977
    z: 0.763555645943
  orientation: 
    x: -0.00181222509127
    y: 0.00315364194103
    z: 0.000115803501103
    w: 0.999993443489
---
header: 
  seq: 25639
  stamp: 
    secs: 1450179904
    nsecs: 771397430
  frame_id: world
pose: 
  position: 
    x: 0.288283497095
    y: 0.0931981503963
    z: 0.763553917408
  orientation: 
    x: -0.00192397437058
    y: 0.00340283010155
    z: 3.55460033461e-05
    w: 0.999992370605
---
header: 
  seq: 25640
  stamp: 
    secs: 1450179904
    nsecs: 779335351
  frame_id: world
pose: 
  position: 
    x: 0.28829190135
    y: 0.0932145193219
    z: 0.763554215431
  orientation: 
    x: -0.00188024900854
    y: 0.00329639925621
    z: 8.82379463292e-05
    w: 0.999992847443
---
header: 
  seq: 25641
  stamp: 
    secs: 1450179904
    nsecs: 786635452
  frame_id: world
pose: 
  position: 
    x: 0.288290798664
    y: 0.0932021215558
    z: 0.763555645943
  orientation: 
    x: -0.00183956103865
    y: 0.0031454525888
    z: 5.61260349059e-05
    w: 0.999993443489
---
header: 
  seq: 25642
  stamp: 
    secs: 1450179904
    nsecs: 795948107
  frame_id: world
pose: 
  position: 
    x: 0.288284778595
    y: 0.0932016223669
    z: 0.763563752174
  orientation: 
    x: -0.00215997453779
    y: 0.00374781829305
    z: 8.37679835968e-05
    w: 0.999990701675
---
header: 
  seq: 25643
  stamp: 
    secs: 1450179904
    nsecs: 803379708
  frame_id: world
pose: 
  position: 
    x: 0.288287699223
    y: 0.0932073965669
    z: 0.763554215431
  orientation: 
    x: -0.0016428809613
    y: 0.00288496166468
    z: 6.26016699243e-05
    w: 0.999994516373
---
header: 
  seq: 25644
  stamp: 
    secs: 1450179904
    nsecs: 811645508
  frame_id: world
pose: 
  position: 
    x: 0.288289636374
    y: 0.0932022258639
    z: 0.763569891453
  orientation: 
    x: -0.00195090740453
    y: 0.00325366831385
    z: 8.27352050692e-05
    w: 0.999992847443
---
header: 
  seq: 25645
  stamp: 
    secs: 1450179904
    nsecs: 821879978
  frame_id: world
pose: 
  position: 
    x: 0.28828933835
    y: 0.0932138189673
    z: 0.763549566269
  orientation: 
    x: -0.0015857469989
    y: 0.00280423113145
    z: 6.50578949717e-05
    w: 0.999994874001
---
header: 
  seq: 25646
  stamp: 
    secs: 1450179904
    nsecs: 828744824
  frame_id: world
pose: 
  position: 
    x: 0.288292735815
    y: 0.0932183861732
    z: 0.763546645641
  orientation: 
    x: -0.00182781682815
    y: 0.00316907814704
    z: 0.000121179909911
    w: 0.99999332428
---
header: 
  seq: 25647
  stamp: 
    secs: 1450179904
    nsecs: 836623444
  frame_id: world
pose: 
  position: 
    x: 0.288281291723
    y: 0.0932050272822
    z: 0.76355612278
  orientation: 
    x: -0.0017573449295
    y: 0.00312869134359
    z: 5.33455895493e-05
    w: 0.999993562698
---
header: 
  seq: 25648
  stamp: 
    secs: 1450179904
    nsecs: 845336639
  frame_id: world
pose: 
  position: 
    x: 0.288296699524
    y: 0.0932128950953
    z: 0.763570666313
  orientation: 
    x: -0.00176372332498
    y: 0.00322605576366
    z: 6.63326791255e-05
    w: 0.99999332428
---
header: 
  seq: 25649
  stamp: 
    secs: 1450179904
    nsecs: 853463308
  frame_id: world
pose: 
  position: 
    x: 0.288293063641
    y: 0.0931964814663
    z: 0.763558983803
  orientation: 
    x: -0.00190159864724
    y: 0.00330110709183
    z: 8.26921022963e-05
    w: 0.999992728233
---
header: 
  seq: 25650
  stamp: 
    secs: 1450179904
    nsecs: 861970252
  frame_id: world
pose: 
  position: 
    x: 0.288298070431
    y: 0.0932083800435
    z: 0.763552129269
  orientation: 
    x: -0.00148562015966
    y: 0.00278166565113
    z: 8.7522668764e-05
    w: 0.999995112419
---
header: 
  seq: 25651
  stamp: 
    secs: 1450179904
    nsecs: 870422726
  frame_id: world
pose: 
  position: 
    x: 0.288298487663
    y: 0.0932203382254
    z: 0.763554751873
  orientation: 
    x: -0.00178099679761
    y: 0.00321283005178
    z: 0.000111584464321
    w: 0.99999332428
---
header: 
  seq: 25652
  stamp: 
    secs: 1450179904
    nsecs: 879103690
  frame_id: world
pose: 
  position: 
    x: 0.28828984499
    y: 0.0932080075145
    z: 0.763568103313
  orientation: 
    x: -0.0019227337325
    y: 0.00324622541666
    z: 0.000101750956674
    w: 0.999992966652
---
header: 
  seq: 25653
  stamp: 
    secs: 1450179904
    nsecs: 886578076
  frame_id: world
pose: 
  position: 
    x: 0.288300842047
    y: 0.0932041108608
    z: 0.763562858105
  orientation: 
    x: -0.00170696037821
    y: 0.0029121756088
    z: 4.5736804168e-05
    w: 0.999994397163
---
header: 
  seq: 25654
  stamp: 
    secs: 1450179904
    nsecs: 895156425
  frame_id: world
pose: 
  position: 
    x: 0.288288116455
    y: 0.0932144001126
    z: 0.763565063477
  orientation: 
    x: -0.00171512016095
    y: 0.00292733241804
    z: 8.01400601631e-05
    w: 0.999994277954
---
header: 
  seq: 25655
  stamp: 
    secs: 1450179904
    nsecs: 903306354
  frame_id: world
pose: 
  position: 
    x: 0.288285344839
    y: 0.0932159945369
    z: 0.7635653615
  orientation: 
    x: -0.00165523425676
    y: 0.00282742967829
    z: 8.37636835058e-05
    w: 0.999994635582
---
header: 
  seq: 25656
  stamp: 
    secs: 1450179904
    nsecs: 911880069
  frame_id: world
pose: 
  position: 
    x: 0.288287758827
    y: 0.0932190567255
    z: 0.763560116291
  orientation: 
    x: -0.00194525846746
    y: 0.00342905335128
    z: 6.13496522419e-05
    w: 0.999992251396
---
header: 
  seq: 25657
  stamp: 
    secs: 1450179904
    nsecs: 919933858
  frame_id: world
pose: 
  position: 
    x: 0.288290500641
    y: 0.0932158753276
    z: 0.763563334942
  orientation: 
    x: -0.00171173096169
    y: 0.00300039234571
    z: 3.8272326492e-05
    w: 0.999994039536
---
header: 
  seq: 25658
  stamp: 
    secs: 1450179904
    nsecs: 928908954
  frame_id: world
pose: 
  position: 
    x: 0.28828805685
    y: 0.0932163372636
    z: 0.763569056988
  orientation: 
    x: -0.00182597280946
    y: 0.00316168018617
    z: 7.09711166564e-05
    w: 0.99999332428
---
header: 
  seq: 25659
  stamp: 
    secs: 1450179904
    nsecs: 936671038
  frame_id: world
pose: 
  position: 
    x: 0.288287371397
    y: 0.093208655715
    z: 0.763565778732
  orientation: 
    x: -0.00185758469161
    y: 0.00317748892121
    z: 6.37551711407e-05
    w: 0.99999332428
---
header: 
  seq: 25660
  stamp: 
    secs: 1450179904
    nsecs: 944906136
  frame_id: world
pose: 
  position: 
    x: 0.288299947977
    y: 0.0932084545493
    z: 0.763560116291
  orientation: 
    x: -0.00185242935549
    y: 0.00324107822962
    z: 9.75325601758e-05
    w: 0.999993085861
---
header: 
  seq: 25661
  stamp: 
    secs: 1450179904
    nsecs: 953204505
  frame_id: world
pose: 
  position: 
    x: 0.288301765919
    y: 0.0932053625584
    z: 0.763568818569
  orientation: 
    x: -0.001734340447
    y: 0.00292826141231
    z: 9.67228334048e-05
    w: 0.999994277954
---
header: 
  seq: 25662
  stamp: 
    secs: 1450179904
    nsecs: 963009837
  frame_id: world
pose: 
  position: 
    x: 0.288296759129
    y: 0.0932151079178
    z: 0.763556718826
  orientation: 
    x: -0.00163002253976
    y: 0.00282652745955
    z: 8.79082508618e-05
    w: 0.999994754791
---
header: 
  seq: 25663
  stamp: 
    secs: 1450179904
    nsecs: 969939891
  frame_id: world
pose: 
  position: 
    x: 0.288290441036
    y: 0.0932105332613
    z: 0.763563990593
  orientation: 
    x: -0.00195936183445
    y: 0.00328973401338
    z: 0.000119829783216
    w: 0.999992728233
---
header: 
  seq: 25664
  stamp: 
    secs: 1450179904
    nsecs: 978817010
  frame_id: world
pose: 
  position: 
    x: 0.28828895092
    y: 0.0932149216533
    z: 0.763549923897
  orientation: 
    x: -0.00183133676182
    y: 0.00321324635297
    z: 8.91439703992e-05
    w: 0.99999320507
---
header: 
  seq: 25665
  stamp: 
    secs: 1450179904
    nsecs: 987448923
  frame_id: world
pose: 
  position: 
    x: 0.288286238909
    y: 0.0932007730007
    z: 0.763566255569
  orientation: 
    x: -0.00206013675779
    y: 0.00353896175511
    z: 0.000115172464575
    w: 0.99999165535
---
header: 
  seq: 25666
  stamp: 
    secs: 1450179904
    nsecs: 995614119
  frame_id: world
pose: 
  position: 
    x: 0.288297086954
    y: 0.093203805387
    z: 0.763565301895
  orientation: 
    x: -0.00189317797776
    y: 0.00325064943172
    z: 0.000148733350215
    w: 0.999992966652
---
header: 
  seq: 25667
  stamp: 
    secs: 1450179905
    nsecs: 3527775
  frame_id: world
pose: 
  position: 
    x: 0.288290202618
    y: 0.093215726316
    z: 0.763554275036
  orientation: 
    x: -0.00163985614199
    y: 0.00280538480729
    z: 0.000109654196422
    w: 0.999994754791
---
header: 
  seq: 25668
  stamp: 
    secs: 1450179905
    nsecs: 11857205
  frame_id: world
pose: 
  position: 
    x: 0.28829446435
    y: 0.0932029113173
    z: 0.763560652733
  orientation: 
    x: -0.00177765451372
    y: 0.00301781482995
    z: 9.7289965197e-05
    w: 0.999993920326
---
header: 
  seq: 25669
  stamp: 
    secs: 1450179905
    nsecs: 20007539
  frame_id: world
pose: 
  position: 
    x: 0.288286685944
    y: 0.0932049006224
    z: 0.763559877872
  orientation: 
    x: -0.00201890291646
    y: 0.00355507223867
    z: 5.18192027812e-05
    w: 0.99999165535
---
header: 
  seq: 25670
  stamp: 
    secs: 1450179905
    nsecs: 29114687
  frame_id: world
pose: 
  position: 
    x: 0.288289755583
    y: 0.093213789165
    z: 0.763556540012
  orientation: 
    x: -0.00168212340213
    y: 0.0028395592235
    z: 0.00010431552073
    w: 0.999994635582
---
header: 
  seq: 25671
  stamp: 
    secs: 1450179905
    nsecs: 37412501
  frame_id: world
pose: 
  position: 
    x: 0.28829434514
    y: 0.0932106971741
    z: 0.763554215431
  orientation: 
    x: -0.00165718502831
    y: 0.0028136014007
    z: 5.62081950193e-05
    w: 0.999994754791
---
header: 
  seq: 25672
  stamp: 
    secs: 1450179905
    nsecs: 45549927
  frame_id: world
pose: 
  position: 
    x: 0.288297235966
    y: 0.0932214558125
    z: 0.763542532921
  orientation: 
    x: -0.00178804493044
    y: 0.00311738462187
    z: 9.28960289457e-05
    w: 0.999993562698
---
header: 
  seq: 25673
  stamp: 
    secs: 1450179905
    nsecs: 53709177
  frame_id: world
pose: 
  position: 
    x: 0.288285464048
    y: 0.0932092666626
    z: 0.763562858105
  orientation: 
    x: -0.00181980372872
    y: 0.00321231293492
    z: 8.20212371764e-05
    w: 0.99999320507
---
header: 
  seq: 25674
  stamp: 
    secs: 1450179905
    nsecs: 64182773
  frame_id: world
pose: 
  position: 
    x: 0.288287997246
    y: 0.0932031422853
    z: 0.763559877872
  orientation: 
    x: -0.00184406072367
    y: 0.00324751134031
    z: 6.58195567667e-05
    w: 0.999993085861
---
header: 
  seq: 25675
  stamp: 
    secs: 1450179905
    nsecs: 70340229
  frame_id: world
pose: 
  position: 
    x: 0.288283258677
    y: 0.0931990817189
    z: 0.763570725918
  orientation: 
    x: -0.00201519532129
    y: 0.00333807151765
    z: 7.18499868526e-05
    w: 0.999992489815
---
header: 
  seq: 25676
  stamp: 
    secs: 1450179905
    nsecs: 79125645
  frame_id: world
pose: 
  position: 
    x: 0.288286924362
    y: 0.0932096764445
    z: 0.763566553593
  orientation: 
    x: -0.00180665380321
    y: 0.00311790895648
    z: 5.90574964008e-05
    w: 0.999993562698
---
header: 
  seq: 25677
  stamp: 
    secs: 1450179905
    nsecs: 86878854
  frame_id: world
pose: 
  position: 
    x: 0.288294315338
    y: 0.0932106897235
    z: 0.763557910919
  orientation: 
    x: -0.00170937238727
    y: 0.00300357188098
    z: -8.34501236113e-07
    w: 0.999994039536
---
header: 
  seq: 25678
  stamp: 
    secs: 1450179905
    nsecs: 95342055
  frame_id: world
pose: 
  position: 
    x: 0.288298368454
    y: 0.0932191833854
    z: 0.763554394245
  orientation: 
    x: -0.00180537486449
    y: 0.0032040043734
    z: 9.49206005316e-05
    w: 0.99999332428
---
header: 
  seq: 25679
  stamp: 
    secs: 1450179905
    nsecs: 104334752
  frame_id: world
pose: 
  position: 
    x: 0.288293898106
    y: 0.093197658658
    z: 0.763573467731
  orientation: 
    x: -0.00190594885498
    y: 0.00325786368921
    z: 6.36296899756e-05
    w: 0.999992966652
---
header: 
  seq: 25680
  stamp: 
    secs: 1450179905
    nsecs: 112869373
  frame_id: world
pose: 
  position: 
    x: 0.288284271955
    y: 0.0932144746184
    z: 0.763548135757
  orientation: 
    x: -0.00156046380289
    y: 0.00276051927358
    z: 0.000100003628177
    w: 0.99999499321
---
header: 
  seq: 25681
  stamp: 
    secs: 1450179905
    nsecs: 121273702
  frame_id: world
pose: 
  position: 
    x: 0.288290262222
    y: 0.0932024344802
    z: 0.763573825359
  orientation: 
    x: -0.00182776979636
    y: 0.003173712641
    z: 9.30080350372e-05
    w: 0.99999332428
---
header: 
  seq: 25682
  stamp: 
    secs: 1450179905
    nsecs: 129599819
  frame_id: world
pose: 
  position: 
    x: 0.288296222687
    y: 0.0932076275349
    z: 0.763555884361
  orientation: 
    x: -0.00173645548057
    y: 0.00309382285923
    z: 7.82600109233e-05
    w: 0.999993801117
---
header: 
  seq: 25683
  stamp: 
    secs: 1450179905
    nsecs: 136562567
  frame_id: world
pose: 
  position: 
    x: 0.288301259279
    y: 0.093205101788
    z: 0.763567447662
  orientation: 
    x: -0.00195598974824
    y: 0.0032879721839
    z: 0.000103898368252
    w: 0.999992728233
---
header: 
  seq: 25684
  stamp: 
    secs: 1450179905
    nsecs: 144955321
  frame_id: world
pose: 
  position: 
    x: 0.288287907839
    y: 0.0932168439031
    z: 0.763559043407
  orientation: 
    x: -0.00171477964614
    y: 0.00299193942919
    z: 3.10305877065e-05
    w: 0.999994039536
---
header: 
  seq: 25685
  stamp: 
    secs: 1450179905
    nsecs: 153331456
  frame_id: world
pose: 
  position: 
    x: 0.288282841444
    y: 0.093207731843
    z: 0.763560831547
  orientation: 
    x: -0.00180463388097
    y: 0.00303063122556
    z: 5.72149110667e-05
    w: 0.999993801117
---
header: 
  seq: 25686
  stamp: 
    secs: 1450179905
    nsecs: 161856899
  frame_id: world
pose: 
  position: 
    x: 0.288288265467
    y: 0.0932094678283
    z: 0.763563454151
  orientation: 
    x: -0.00202861241996
    y: 0.00348967476748
    z: 4.96223510709e-05
    w: 0.999991893768
---
header: 
  seq: 25687
  stamp: 
    secs: 1450179905
    nsecs: 170029335
  frame_id: world
pose: 
  position: 
    x: 0.288293749094
    y: 0.0932061001658
    z: 0.763558864594
  orientation: 
    x: -0.00193299038801
    y: 0.00334445992485
    z: 9.32003458729e-05
    w: 0.999992609024
---
header: 
  seq: 25688
  stamp: 
    secs: 1450179905
    nsecs: 180731355
  frame_id: world
pose: 
  position: 
    x: 0.288289517164
    y: 0.0932151004672
    z: 0.763564765453
  orientation: 
    x: -0.00195310311392
    y: 0.00341663323343
    z: 0.000114539485367
    w: 0.999992251396
---
header: 
  seq: 25689
  stamp: 
    secs: 1450179905
    nsecs: 187137804
  frame_id: world
pose: 
  position: 
    x: 0.288291722536
    y: 0.0932028591633
    z: 0.76357126236
  orientation: 
    x: -0.0019333793316
    y: 0.00336127984338
    z: 7.1674825449e-05
    w: 0.999992489815
---
header: 
  seq: 25690
  stamp: 
    secs: 1450179905
    nsecs: 194998872
  frame_id: world
pose: 
  position: 
    x: 0.288291543722
    y: 0.0932178124785
    z: 0.763569653034
  orientation: 
    x: -0.00160373328254
    y: 0.00286966050044
    z: 0.000115481045214
    w: 0.999994635582
---
header: 
  seq: 25691
  stamp: 
    secs: 1450179905
    nsecs: 203348973
  frame_id: world
pose: 
  position: 
    x: 0.288291245699
    y: 0.0931895002723
    z: 0.763556003571
  orientation: 
    x: -0.00183250301052
    y: 0.0033349187579
    z: 8.1906109699e-05
    w: 0.999992847443
---
header: 
  seq: 25692
  stamp: 
    secs: 1450179905
    nsecs: 212556196
  frame_id: world
pose: 
  position: 
    x: 0.288294702768
    y: 0.0932140424848
    z: 0.763559520245
  orientation: 
    x: -0.00169689534232
    y: 0.00295004295185
    z: 7.73743304308e-05
    w: 0.999994277954
---
header: 
  seq: 25693
  stamp: 
    secs: 1450179905
    nsecs: 220615699
  frame_id: world
pose: 
  position: 
    x: 0.288281530142
    y: 0.0932073667645
    z: 0.763564169407
  orientation: 
    x: -0.00204615737312
    y: 0.00363950501196
    z: 0.000101396770333
    w: 0.999991297722
---
header: 
  seq: 25694
  stamp: 
    secs: 1450179905
    nsecs: 229196602
  frame_id: world
pose: 
  position: 
    x: 0.288300126791
    y: 0.0932032763958
    z: 0.76355612278
  orientation: 
    x: -0.00181528402027
    y: 0.0031821213197
    z: 7.01517201378e-05
    w: 0.99999332428
---
header: 
  seq: 25695
  stamp: 
    secs: 1450179905
    nsecs: 236676412
  frame_id: world
pose: 
  position: 
    x: 0.288291662931
    y: 0.093202970922
    z: 0.763560175896
  orientation: 
    x: -0.00214483798482
    y: 0.00376969156787
    z: 4.39982431999e-05
    w: 0.999990582466
---
header: 
  seq: 25696
  stamp: 
    secs: 1450179905
    nsecs: 244934786
  frame_id: world
pose: 
  position: 
    x: 0.288288354874
    y: 0.0932087227702
    z: 0.763557612896
  orientation: 
    x: -0.0018466564361
    y: 0.00314658787102
    z: 0.000107947111246
    w: 0.99999332428
---
header: 
  seq: 25697
  stamp: 
    secs: 1450179905
    nsecs: 253789653
  frame_id: world
pose: 
  position: 
    x: 0.288289874792
    y: 0.0932033509016
    z: 0.763557314873
  orientation: 
    x: -0.00185061607044
    y: 0.00326401763596
    z: 8.31099387142e-05
    w: 0.999992966652
---
header: 
  seq: 25698
  stamp: 
    secs: 1450179905
    nsecs: 261843608
  frame_id: world
pose: 
  position: 
    x: 0.288295328617
    y: 0.0932094678283
    z: 0.763557612896
  orientation: 
    x: -0.00172910979018
    y: 0.00300320284441
    z: 9.96615199256e-05
    w: 0.999994039536
---
header: 
  seq: 25699
  stamp: 
    secs: 1450179905
    nsecs: 271487544
  frame_id: world
pose: 
  position: 
    x: 0.288293898106
    y: 0.0932127982378
    z: 0.763559699059
  orientation: 
    x: -0.00186095235404
    y: 0.00327684055082
    z: 9.70504625002e-05
    w: 0.999992966652
---
header: 
  seq: 25700
  stamp: 
    secs: 1450179905
    nsecs: 279143922
  frame_id: world
pose: 
  position: 
    x: 0.288305580616
    y: 0.0932313874364
    z: 0.763550758362
  orientation: 
    x: -0.00199664477259
    y: 0.00365449138917
    z: 0.000117136747576
    w: 0.999991416931
---
header: 
  seq: 25701
  stamp: 
    secs: 1450179905
    nsecs: 286673773
  frame_id: world
pose: 
  position: 
    x: 0.288301348686
    y: 0.093220770359
    z: 0.763549149036
  orientation: 
    x: -0.0019116550684
    y: 0.00335569959134
    z: 0.000139157840749
    w: 0.999992609024
---
header: 
  seq: 25702
  stamp: 
    secs: 1450179905
    nsecs: 295198064
  frame_id: world
pose: 
  position: 
    x: 0.288287967443
    y: 0.0932149291039
    z: 0.763570129871
  orientation: 
    x: -0.00189887965098
    y: 0.0032184489537
    z: 6.04963934165e-05
    w: 0.999993085861
---
header: 
  seq: 25703
  stamp: 
    secs: 1450179905
    nsecs: 303354778
  frame_id: world
pose: 
  position: 
    x: 0.288297444582
    y: 0.0932112038136
    z: 0.763552367687
  orientation: 
    x: -0.00169632746838
    y: 0.00297710229643
    z: 0.000101401710708
    w: 0.999994158745
---
header: 
  seq: 25704
  stamp: 
    secs: 1450179905
    nsecs: 311944529
  frame_id: world
pose: 
  position: 
    x: 0.288289517164
    y: 0.0932158455253
    z: 0.763562977314
  orientation: 
    x: -0.00142105133273
    y: 0.00243382155895
    z: 0.000108114873001
    w: 0.999996066093
---
header: 
  seq: 25705
  stamp: 
    secs: 1450179905
    nsecs: 319988479
  frame_id: world
pose: 
  position: 
    x: 0.288293927908
    y: 0.0931942015886
    z: 0.763562679291
  orientation: 
    x: -0.00196415814571
    y: 0.00337572745048
    z: 9.95949885692e-05
    w: 0.999992370605
---
header: 
  seq: 25706
  stamp: 
    secs: 1450179905
    nsecs: 329018926
  frame_id: world
pose: 
  position: 
    x: 0.288289606571
    y: 0.0932089984417
    z: 0.763558626175
  orientation: 
    x: -0.00188584707212
    y: 0.00320418342017
    z: 6.21890285402e-05
    w: 0.999993085861
---
header: 
  seq: 25707
  stamp: 
    secs: 1450179905
    nsecs: 336917218
  frame_id: world
pose: 
  position: 
    x: 0.288288801908
    y: 0.0932140871882
    z: 0.763571202755
  orientation: 
    x: -0.00188469141722
    y: 0.00316194188781
    z: 8.90935771167e-05
    w: 0.99999332428
---
header: 
  seq: 25708
  stamp: 
    secs: 1450179905
    nsecs: 345257432
  frame_id: world
pose: 
  position: 
    x: 0.288290888071
    y: 0.0932129248977
    z: 0.763567268848
  orientation: 
    x: -0.0019240048714
    y: 0.00332259945571
    z: 8.16810061224e-05
    w: 0.999992728233
---
header: 
  seq: 25709
  stamp: 
    secs: 1450179905
    nsecs: 353676336
  frame_id: world
pose: 
  position: 
    x: 0.288280010223
    y: 0.0932060480118
    z: 0.763565063477
  orientation: 
    x: -0.00197046995163
    y: 0.00342112733051
    z: 4.7099267249e-05
    w: 0.999992251396
---
header: 
  seq: 25710
  stamp: 
    secs: 1450179905
    nsecs: 363792471
  frame_id: world
pose: 
  position: 
    x: 0.288287937641
    y: 0.0932045280933
    z: 0.763570189476
  orientation: 
    x: -0.00201867357828
    y: 0.00350098265335
    z: 9.23878978938e-05
    w: 0.999991893768
---
header: 
  seq: 25711
  stamp: 
    secs: 1450179905
    nsecs: 371701258
  frame_id: world
pose: 
  position: 
    x: 0.288290441036
    y: 0.0932174697518
    z: 0.76356112957
  orientation: 
    x: -0.00181941397022
    y: 0.00315019860864
    z: 0.000101663827081
    w: 0.999993443489
---
header: 
  seq: 25712
  stamp: 
    secs: 1450179905
    nsecs: 379904163
  frame_id: world
pose: 
  position: 
    x: 0.288291364908
    y: 0.0932053029537
    z: 0.763557076454
  orientation: 
    x: -0.00183434702922
    y: 0.00329102436081
    z: 8.04871306173e-05
    w: 0.999992966652
---
header: 
  seq: 25713
  stamp: 
    secs: 1450179905
    nsecs: 386821986
  frame_id: world
pose: 
  position: 
    x: 0.288290351629
    y: 0.0932071730494
    z: 0.763553202152
  orientation: 
    x: -0.00167235778645
    y: 0.00294904666953
    z: 7.51350817154e-05
    w: 0.999994277954
---
header: 
  seq: 25714
  stamp: 
    secs: 1450179905
    nsecs: 395666822
  frame_id: world
pose: 
  position: 
    x: 0.288293033838
    y: 0.0932116657495
    z: 0.76357126236
  orientation: 
    x: -0.00161799439229
    y: 0.0027343807742
    z: 6.08304289926e-05
    w: 0.99999499321
---
header: 
  seq: 25715
  stamp: 
    secs: 1450179905
    nsecs: 403682618
  frame_id: world
pose: 
  position: 
    x: 0.288289248943
    y: 0.0932095870376
    z: 0.763555169106
  orientation: 
    x: -0.0019784742035
    y: 0.00340752815828
    z: 0.000102759040601
    w: 0.999992251396
---
header: 
  seq: 25716
  stamp: 
    secs: 1450179905
    nsecs: 412097076
  frame_id: world
pose: 
  position: 
    x: 0.288285821676
    y: 0.0931986048818
    z: 0.763569176197
  orientation: 
    x: -0.00179810496047
    y: 0.00309978751466
    z: 9.43492777878e-05
    w: 0.999993562698
---
header: 
  seq: 25717
  stamp: 
    secs: 1450179905
    nsecs: 420559564
  frame_id: world
pose: 
  position: 
    x: 0.288279652596
    y: 0.0932125598192
    z: 0.763570070267
  orientation: 
    x: -0.00188772904221
    y: 0.0033508175984
    z: 7.90835474618e-05
    w: 0.999992609024
---
header: 
  seq: 25718
  stamp: 
    secs: 1450179905
    nsecs: 428939531
  frame_id: world
pose: 
  position: 
    x: 0.28828945756
    y: 0.0932137966156
    z: 0.763570249081
  orientation: 
    x: -0.00187465653289
    y: 0.00324932392687
    z: 8.98213111213e-05
    w: 0.999992966652
---
header: 
  seq: 25719
  stamp: 
    secs: 1450179905
    nsecs: 436972689
  frame_id: world
pose: 
  position: 
    x: 0.288295656443
    y: 0.0932080000639
    z: 0.763557434082
  orientation: 
    x: -0.00161691789981
    y: 0.00287164677866
    z: 7.10079984856e-05
    w: 0.999994635582
---
header: 
  seq: 25720
  stamp: 
    secs: 1450179905
    nsecs: 445125701
  frame_id: world
pose: 
  position: 
    x: 0.288288712502
    y: 0.093204215169
    z: 0.763566017151
  orientation: 
    x: -0.0019827275537
    y: 0.00355299678631
    z: 9.15578566492e-05
    w: 0.999991774559
---
header: 
  seq: 25721
  stamp: 
    secs: 1450179905
    nsecs: 453771592
  frame_id: world
pose: 
  position: 
    x: 0.28828522563
    y: 0.0932120680809
    z: 0.763572096825
  orientation: 
    x: -0.00209486554377
    y: 0.00360364397056
    z: 7.34419882065e-05
    w: 0.999991297722
---
header: 
  seq: 25722
  stamp: 
    secs: 1450179905
    nsecs: 461996574
  frame_id: world
pose: 
  position: 
    x: 0.288304269314
    y: 0.0932373404503
    z: 0.763546526432
  orientation: 
    x: -0.00194125820417
    y: 0.00347811961547
    z: 0.000116847193567
    w: 0.999992132187
---
header: 
  seq: 25723
  stamp: 
    secs: 1450179905
    nsecs: 470611556
  frame_id: world
pose: 
  position: 
    x: 0.288298636675
    y: 0.093215957284
    z: 0.763555586338
  orientation: 
    x: -0.00212167669088
    y: 0.00359193561599
    z: 0.000147639904753
    w: 0.999991297722
---
header: 
  seq: 25724
  stamp: 
    secs: 1450179905
    nsecs: 484280383
  frame_id: world
pose: 
  position: 
    x: 0.288292646408
    y: 0.0932017117739
    z: 0.763562560081
  orientation: 
    x: -0.00170852208976
    y: 0.00303273880854
    z: 6.48482528049e-05
    w: 0.999994039536
---
header: 
  seq: 25725
  stamp: 
    secs: 1450179905
    nsecs: 487079812
  frame_id: world
pose: 
  position: 
    x: 0.288284569979
    y: 0.0932108610868
    z: 0.763562858105
  orientation: 
    x: -0.00191865093075
    y: 0.00331454398111
    z: 6.53329989291e-05
    w: 0.999992728233
---
header: 
  seq: 25726
  stamp: 
    secs: 1450179905
    nsecs: 495175327
  frame_id: world
pose: 
  position: 
    x: 0.288297265768
    y: 0.0932124182582
    z: 0.76356202364
  orientation: 
    x: -0.001758210361
    y: 0.00301881995983
    z: 6.13083830103e-05
    w: 0.999993920326
---
header: 
  seq: 25727
  stamp: 
    secs: 1450179905
    nsecs: 503648772
  frame_id: world
pose: 
  position: 
    x: 0.28828984499
    y: 0.0932110995054
    z: 0.763559281826
  orientation: 
    x: -0.00181454687845
    y: 0.0031992259901
    z: 7.87318858784e-05
    w: 0.99999332428
---
header: 
  seq: 25728
  stamp: 
    secs: 1450179905
    nsecs: 512356930
  frame_id: world
pose: 
  position: 
    x: 0.288286328316
    y: 0.0932131633162
    z: 0.763559937477
  orientation: 
    x: -0.00168067426421
    y: 0.00293577928096
    z: 7.312415255e-05
    w: 0.999994277954
---
header: 
  seq: 25729
  stamp: 
    secs: 1450179905
    nsecs: 521219600
  frame_id: world
pose: 
  position: 
    x: 0.288303554058
    y: 0.0932068526745
    z: 0.763563096523
  orientation: 
    x: -0.00196851417422
    y: 0.00338080106303
    z: 9.68870081124e-05
    w: 0.999992370605
---
header: 
  seq: 25730
  stamp: 
    secs: 1450179905
    nsecs: 528879110
  frame_id: world
pose: 
  position: 
    x: 0.288296788931
    y: 0.0932041555643
    z: 0.763575673103
  orientation: 
    x: -0.00148555962369
    y: 0.00265997136012
    z: 8.78945211298e-05
    w: 0.999995350838
---
header: 
  seq: 25731
  stamp: 
    secs: 1450179905
    nsecs: 536795445
  frame_id: world
pose: 
  position: 
    x: 0.288292258978
    y: 0.0932264849544
    z: 0.763563096523
  orientation: 
    x: -0.00212116539478
    y: 0.00364089547656
    z: 7.98131877673e-05
    w: 0.999991178513
---
header: 
  seq: 25732
  stamp: 
    secs: 1450179905
    nsecs: 545286528
  frame_id: world
pose: 
  position: 
    x: 0.288296639919
    y: 0.0932066217065
    z: 0.763567745686
  orientation: 
    x: -0.00214034621604
    y: 0.00370431644842
    z: 7.9768266005e-05
    w: 0.999990940094
---
header: 
  seq: 25733
  stamp: 
    secs: 1450179905
    nsecs: 553539158
  frame_id: world
pose: 
  position: 
    x: 0.288288712502
    y: 0.09320949018
    z: 0.763567864895
  orientation: 
    x: -0.0019497788744
    y: 0.00348847243004
    z: 8.54207246448e-05
    w: 0.999992012978
---
header: 
  seq: 25734
  stamp: 
    secs: 1450179905
    nsecs: 562732800
  frame_id: world
pose: 
  position: 
    x: 0.288291871548
    y: 0.0932078063488
    z: 0.763566553593
  orientation: 
    x: -0.00172498484608
    y: 0.00312295439653
    z: 7.212440687e-05
    w: 0.999993681908
---
header: 
  seq: 25735
  stamp: 
    secs: 1450179905
    nsecs: 574180805
  frame_id: world
pose: 
  position: 
    x: 0.288283914328
    y: 0.0932064056396
    z: 0.763551414013
  orientation: 
    x: -0.00186519464478
    y: 0.0032949631568
    z: 9.52196278377e-05
    w: 0.999992847443
---
header: 
  seq: 25736
  stamp: 
    secs: 1450179905
    nsecs: 584678720
  frame_id: world
pose: 
  position: 
    x: 0.288287341595
    y: 0.0932159349322
    z: 0.763569176197
  orientation: 
    x: -0.00171204959042
    y: 0.00305536389351
    z: 3.45657790604e-05
    w: 0.999993920326
---
header: 
  seq: 25737
  stamp: 
    secs: 1450179905
    nsecs: 588270003
  frame_id: world
pose: 
  position: 
    x: 0.288286030293
    y: 0.0932063683867
    z: 0.763569653034
  orientation: 
    x: -0.00176699890289
    y: 0.00314521766268
    z: 4.71726598334e-05
    w: 0.999993562698
---
header: 
  seq: 25738
  stamp: 
    secs: 1450179905
    nsecs: 595817690
  frame_id: world
pose: 
  position: 
    x: 0.288284420967
    y: 0.0932071954012
    z: 0.763564705849
  orientation: 
    x: -0.00194223737344
    y: 0.00341746630147
    z: 0.000125525955809
    w: 0.999992370605
---
header: 
  seq: 25739
  stamp: 
    secs: 1450179905
    nsecs: 604314055
  frame_id: world
pose: 
  position: 
    x: 0.288296550512
    y: 0.0932128876448
    z: 0.763545095921
  orientation: 
    x: -0.00172877218574
    y: 0.00318582286127
    z: 6.34591124253e-05
    w: 0.999993443489
---
header: 
  seq: 25740
  stamp: 
    secs: 1450179905
    nsecs: 612323616
  frame_id: world
pose: 
  position: 
    x: 0.288292348385
    y: 0.0932127386332
    z: 0.763569355011
  orientation: 
    x: -0.00183429627214
    y: 0.00310086132959
    z: 7.20082025509e-05
    w: 0.999993562698
---
header: 
  seq: 25741
  stamp: 
    secs: 1450179905
    nsecs: 620361973
  frame_id: world
pose: 
  position: 
    x: 0.288297474384
    y: 0.0932152271271
    z: 0.763556480408
  orientation: 
    x: -0.00155258260202
    y: 0.0027352203615
    z: 7.11092216079e-05
    w: 0.999995112419
---
header: 
  seq: 25742
  stamp: 
    secs: 1450179905
    nsecs: 630398526
  frame_id: world
pose: 
  position: 
    x: 0.288294434547
    y: 0.0931987389922
    z: 0.763563275337
  orientation: 
    x: -0.00194087263662
    y: 0.00329494057223
    z: 0.000132145607495
    w: 0.999992728233
---
header: 
  seq: 25743
  stamp: 
    secs: 1450179905
    nsecs: 636948637
  frame_id: world
pose: 
  position: 
    x: 0.288285017014
    y: 0.0932201817632
    z: 0.763554513454
  orientation: 
    x: -0.00198110449128
    y: 0.00348388124257
    z: 9.39361125347e-05
    w: 0.999992012978
---
header: 
  seq: 25744
  stamp: 
    secs: 1450179905
    nsecs: 645266425
  frame_id: world
pose: 
  position: 
    x: 0.288284748793
    y: 0.0932164266706
    z: 0.76355522871
  orientation: 
    x: -0.00179141457193
    y: 0.0030979658477
    z: 8.1821322965e-05
    w: 0.999993681908
---
header: 
  seq: 25745
  stamp: 
    secs: 1450179905
    nsecs: 653678074
  frame_id: world
pose: 
  position: 
    x: 0.288283854723
    y: 0.0932095348835
    z: 0.76354598999
  orientation: 
    x: -0.00157214642968
    y: 0.00277105276473
    z: 3.69837871403e-05
    w: 0.99999499321
---
header: 
  seq: 25746
  stamp: 
    secs: 1450179905
    nsecs: 662150308
  frame_id: world
pose: 
  position: 
    x: 0.28830203414
    y: 0.0932035893202
    z: 0.763567149639
  orientation: 
    x: -0.00193992583081
    y: 0.00331145175733
    z: 9.70967594185e-05
    w: 0.999992728233
---
header: 
  seq: 25747
  stamp: 
    secs: 1450179905
    nsecs: 670738838
  frame_id: world
pose: 
  position: 
    x: 0.288288384676
    y: 0.0932178497314
    z: 0.763566076756
  orientation: 
    x: -0.00159656116739
    y: 0.00267196702771
    z: 5.18653323525e-05
    w: 0.999995231628
---
header: 
  seq: 25748
  stamp: 
    secs: 1450179905
    nsecs: 681088110
  frame_id: world
pose: 
  position: 
    x: 0.288293212652
    y: 0.0932138934731
    z: 0.763553678989
  orientation: 
    x: -0.00196455419064
    y: 0.00347495800816
    z: 6.33970921626e-05
    w: 0.999992132187
---
header: 
  seq: 25749
  stamp: 
    secs: 1450179905
    nsecs: 687085377
  frame_id: world
pose: 
  position: 
    x: 0.288283586502
    y: 0.0932207033038
    z: 0.763556003571
  orientation: 
    x: -0.00177013559733
    y: 0.00302109145559
    z: 0.000115113107313
    w: 0.999993920326
---
header: 
  seq: 25750
  stamp: 
    secs: 1450179905
    nsecs: 695320618
  frame_id: world
pose: 
  position: 
    x: 0.288289248943
    y: 0.0932135507464
    z: 0.763565838337
  orientation: 
    x: -0.0017627896741
    y: 0.00307995593175
    z: 9.35600401135e-05
    w: 0.999993801117
---
header: 
  seq: 25751
  stamp: 
    secs: 1450179905
    nsecs: 703525859
  frame_id: world
pose: 
  position: 
    x: 0.288295030594
    y: 0.0932167842984
    z: 0.763559281826
  orientation: 
    x: -0.00172607984859
    y: 0.0029685490299
    z: 6.56138581689e-05
    w: 0.999994158745
---
header: 
  seq: 25752
  stamp: 
    secs: 1450179905
    nsecs: 712135356
  frame_id: world
pose: 
  position: 
    x: 0.28828433156
    y: 0.0931981056929
    z: 0.763567864895
  orientation: 
    x: -0.00208916515112
    y: 0.0035213525407
    z: 6.43767125439e-05
    w: 0.99999165535
---
header: 
  seq: 25753
  stamp: 
    secs: 1450179905
    nsecs: 720262994
  frame_id: world
pose: 
  position: 
    x: 0.288289636374
    y: 0.0932102650404
    z: 0.763551652431
  orientation: 
    x: -0.00166021916084
    y: 0.00288592651486
    z: 7.6913202065e-05
    w: 0.999994516373
---
header: 
  seq: 25754
  stamp: 
    secs: 1450179905
    nsecs: 729176882
  frame_id: world
pose: 
  position: 
    x: 0.28828856349
    y: 0.0932139530778
    z: 0.763562440872
  orientation: 
    x: -0.00174371362664
    y: 0.00305026723072
    z: 1.55797897605e-05
    w: 0.999993920326
---
header: 
  seq: 25755
  stamp: 
    secs: 1450179905
    nsecs: 737750754
  frame_id: world
pose: 
  position: 
    x: 0.288289934397
    y: 0.093211196363
    z: 0.763558089733
  orientation: 
    x: -0.00180799490772
    y: 0.00314185838215
    z: 8.73802782735e-05
    w: 0.999993443489
---
header: 
  seq: 25756
  stamp: 
    secs: 1450179905
    nsecs: 745311472
  frame_id: world
pose: 
  position: 
    x: 0.288284927607
    y: 0.093206346035
    z: 0.763562977314
  orientation: 
    x: -0.0016576127382
    y: 0.00275883451104
    z: 7.81472044764e-05
    w: 0.999994874001
---
header: 
  seq: 25757
  stamp: 
    secs: 1450179905
    nsecs: 753554325
  frame_id: world
pose: 
  position: 
    x: 0.288287907839
    y: 0.0932083949447
    z: 0.763555347919
  orientation: 
    x: -0.00182313192636
    y: 0.00315671833232
    z: 5.12326332682e-05
    w: 0.999993443489
---
header: 
  seq: 25758
  stamp: 
    secs: 1450179905
    nsecs: 763998302
  frame_id: world
pose: 
  position: 
    x: 0.288299709558
    y: 0.0932101458311
    z: 0.763558983803
  orientation: 
    x: -0.00197643158026
    y: 0.003399660578
    z: 0.000119985583297
    w: 0.999992251396
---
header: 
  seq: 25759
  stamp: 
    secs: 1450179905
    nsecs: 770318472
  frame_id: world
pose: 
  position: 
    x: 0.288296699524
    y: 0.0932131409645
    z: 0.763544797897
  orientation: 
    x: -0.0018328782171
    y: 0.0032157797832
    z: 0.000171874227817
    w: 0.99999320507
---
header: 
  seq: 25760
  stamp: 
    secs: 1450179905
    nsecs: 781620668
  frame_id: world
pose: 
  position: 
    x: 0.288293331861
    y: 0.0932100713253
    z: 0.763554096222
  orientation: 
    x: -0.00187086814549
    y: 0.00326216989197
    z: 8.41035507619e-05
    w: 0.999992966652
---
header: 
  seq: 25761
  stamp: 
    secs: 1450179905
    nsecs: 787014924
  frame_id: world
pose: 
  position: 
    x: 0.28829741478
    y: 0.0932226553559
    z: 0.763554275036
  orientation: 
    x: -0.00192752375733
    y: 0.00340013182722
    z: 0.000130336367874
    w: 0.999992370605
---
header: 
  seq: 25762
  stamp: 
    secs: 1450179905
    nsecs: 795207831
  frame_id: world
pose: 
  position: 
    x: 0.288285821676
    y: 0.0932153835893
    z: 0.763548314571
  orientation: 
    x: -0.00181532499846
    y: 0.00315122259781
    z: 0.000136835369631
    w: 0.999993443489
---
header: 
  seq: 25763
  stamp: 
    secs: 1450179905
    nsecs: 804741539
  frame_id: world
pose: 
  position: 
    x: 0.288285195827
    y: 0.0932142958045
    z: 0.763552308083
  orientation: 
    x: -0.00166559661739
    y: 0.00294564780779
    z: 8.03179646027e-05
    w: 0.999994277954
---
header: 
  seq: 25764
  stamp: 
    secs: 1450179905
    nsecs: 813034603
  frame_id: world
pose: 
  position: 
    x: 0.28829228878
    y: 0.0932024046779
    z: 0.76355445385
  orientation: 
    x: -0.00181900465395
    y: 0.00317942048423
    z: 8.46043185447e-05
    w: 0.99999332428
---
header: 
  seq: 25765
  stamp: 
    secs: 1450179905
    nsecs: 820311020
  frame_id: world
pose: 
  position: 
    x: 0.288293898106
    y: 0.0932185798883
    z: 0.763560056686
  orientation: 
    x: -0.00171813101042
    y: 0.00297052785754
    z: 5.25083269167e-05
    w: 0.999994158745
---
header: 
  seq: 25766
  stamp: 
    secs: 1450179905
    nsecs: 829609594
  frame_id: world
pose: 
  position: 
    x: 0.288295805454
    y: 0.0932078361511
    z: 0.76356524229
  orientation: 
    x: -0.00165147986263
    y: 0.00282708206214
    z: 5.98590886511e-05
    w: 0.999994635582
---
header: 
  seq: 25767
  stamp: 
    secs: 1450179905
    nsecs: 836997729
  frame_id: world
pose: 
  position: 
    x: 0.288287132978
    y: 0.093211479485
    z: 0.76355266571
  orientation: 
    x: -0.00181650056038
    y: 0.00323071377352
    z: 8.11324716778e-05
    w: 0.99999320507
---
header: 
  seq: 25768
  stamp: 
    secs: 1450179905
    nsecs: 845359631
  frame_id: world
pose: 
  position: 
    x: 0.288288801908
    y: 0.0932034105062
    z: 0.763554513454
  orientation: 
    x: -0.00186062115245
    y: 0.00326921627857
    z: 5.16032996529e-05
    w: 0.999992966652
---
header: 
  seq: 25769
  stamp: 
    secs: 1450179905
    nsecs: 854633233
  frame_id: world
pose: 
  position: 
    x: 0.288292348385
    y: 0.0931898579001
    z: 0.763564586639
  orientation: 
    x: -0.00183392118197
    y: 0.00327269779518
    z: 0.000147180297063
    w: 0.999992966652
---
header: 
  seq: 25770
  stamp: 
    secs: 1450179905
    nsecs: 861991757
  frame_id: world
pose: 
  position: 
    x: 0.288286536932
    y: 0.0932051539421
    z: 0.763549387455
  orientation: 
    x: -0.0018176571466
    y: 0.00321824010462
    z: 2.59289499809e-05
    w: 0.99999320507
---
header: 
  seq: 25771
  stamp: 
    secs: 1450179905
    nsecs: 870324413
  frame_id: world
pose: 
  position: 
    x: 0.288284510374
    y: 0.0932114571333
    z: 0.763539612293
  orientation: 
    x: -0.00177987560164
    y: 0.00320694223046
    z: 0.000151772037498
    w: 0.99999332428
---
header: 
  seq: 25772
  stamp: 
    secs: 1450179905
    nsecs: 878914274
  frame_id: world
pose: 
  position: 
    x: 0.288286536932
    y: 0.0932183340192
    z: 0.763570964336
  orientation: 
    x: -0.00163572398014
    y: 0.00284755369648
    z: 8.4545572463e-05
    w: 0.999994635582
---
header: 
  seq: 25773
  stamp: 
    secs: 1450179905
    nsecs: 886743822
  frame_id: world
pose: 
  position: 
    x: 0.288285732269
    y: 0.0932178348303
    z: 0.763553321362
  orientation: 
    x: -0.00156213867012
    y: 0.00268950406462
    z: 5.11455837113e-05
    w: 0.999995231628
---
header: 
  seq: 25774
  stamp: 
    secs: 1450179905
    nsecs: 895358739
  frame_id: world
pose: 
  position: 
    x: 0.288298517466
    y: 0.0932110026479
    z: 0.76355355978
  orientation: 
    x: -0.00174429488834
    y: 0.00313971866854
    z: 0.000106847008283
    w: 0.999993562698
---
header: 
  seq: 25775
  stamp: 
    secs: 1450179905
    nsecs: 903566234
  frame_id: world
pose: 
  position: 
    x: 0.288297474384
    y: 0.093205653131
    z: 0.763551771641
  orientation: 
    x: -0.00172656180803
    y: 0.0031053214334
    z: 9.35205462156e-05
    w: 0.999993681908
---
header: 
  seq: 25776
  stamp: 
    secs: 1450179905
    nsecs: 911914071
  frame_id: world
pose: 
  position: 
    x: 0.288289666176
    y: 0.093203112483
    z: 0.763566076756
  orientation: 
    x: -0.00176747445948
    y: 0.00315041583963
    z: 0.000125092992675
    w: 0.999993562698
---
header: 
  seq: 25777
  stamp: 
    secs: 1450179905
    nsecs: 920310763
  frame_id: world
pose: 
  position: 
    x: 0.28829690814
    y: 0.0932217314839
    z: 0.763566792011
  orientation: 
    x: -0.00180763634853
    y: 0.00323221343569
    z: 8.47374030855e-05
    w: 0.99999320507
---
header: 
  seq: 25778
  stamp: 
    secs: 1450179905
    nsecs: 931668363
  frame_id: world
pose: 
  position: 
    x: 0.288292914629
    y: 0.0932087525725
    z: 0.763556063175
  orientation: 
    x: -0.00198023556732
    y: 0.0034794062376
    z: 0.000103129401396
    w: 0.999992012978
---
header: 
  seq: 25779
  stamp: 
    secs: 1450179905
    nsecs: 936854079
  frame_id: world
pose: 
  position: 
    x: 0.288295954466
    y: 0.0932221934199
    z: 0.763547182083
  orientation: 
    x: -0.00130847212858
    y: 0.00235961633734
    z: 0.000117060553748
    w: 0.999996423721
---
header: 
  seq: 25780
  stamp: 
    secs: 1450179905
    nsecs: 946238254
  frame_id: world
pose: 
  position: 
    x: 0.288301229477
    y: 0.0932186022401
    z: 0.763574302197
  orientation: 
    x: -0.00188967294525
    y: 0.00319992587902
    z: 6.65365805617e-05
    w: 0.999993085861
---
header: 
  seq: 25781
  stamp: 
    secs: 1450179905
    nsecs: 953539317
  frame_id: world
pose: 
  position: 
    x: 0.288294941187
    y: 0.0932105854154
    z: 0.763553321362
  orientation: 
    x: -0.00167591776699
    y: 0.00290958350524
    z: 7.42803604226e-05
    w: 0.999994397163
---
header: 
  seq: 25782
  stamp: 
    secs: 1450179905
    nsecs: 961977448
  frame_id: world
pose: 
  position: 
    x: 0.288293540478
    y: 0.0932118296623
    z: 0.763540685177
  orientation: 
    x: -0.00152860279195
    y: 0.00274948799051
    z: 0.000118151387142
    w: 0.999995112419
---
header: 
  seq: 25783
  stamp: 
    secs: 1450179905
    nsecs: 970148491
  frame_id: world
pose: 
  position: 
    x: 0.288287252188
    y: 0.0932032093406
    z: 0.763541817665
  orientation: 
    x: -0.00188035750762
    y: 0.00342218927108
    z: 0.000127183346194
    w: 0.999992370605
---
header: 
  seq: 25784
  stamp: 
    secs: 1450179905
    nsecs: 980622997
  frame_id: world
pose: 
  position: 
    x: 0.288290560246
    y: 0.0931979343295
    z: 0.763553023338
  orientation: 
    x: -0.00168397650123
    y: 0.00297183520161
    z: 3.23181084241e-05
    w: 0.999994158745
---
header: 
  seq: 25785
  stamp: 
    secs: 1450179905
    nsecs: 989689923
  frame_id: world
pose: 
  position: 
    x: 0.288295984268
    y: 0.0932066515088
    z: 0.763539493084
  orientation: 
    x: -0.00159276043996
    y: 0.00293217389844
    z: 0.000102741927549
    w: 0.999994516373
---
header: 
  seq: 25786
  stamp: 
    secs: 1450179905
    nsecs: 995222456
  frame_id: world
pose: 
  position: 
    x: 0.288299351931
    y: 0.0932189375162
    z: 0.763533055782
  orientation: 
    x: -0.00146671093535
    y: 0.00273491069674
    z: 0.000112880938104
    w: 0.999995231628
---
header: 
  seq: 25787
  stamp: 
    secs: 1450179906
    nsecs: 3501515
  frame_id: world
pose: 
  position: 
    x: 0.288307309151
    y: 0.093216240406
    z: 0.76353675127
  orientation: 
    x: -0.00148336961865
    y: 0.00262575480156
    z: 8.77179481904e-05
    w: 0.999995470047
---
header: 
  seq: 25788
  stamp: 
    secs: 1450179906
    nsecs: 11799829
  frame_id: world
pose: 
  position: 
    x: 0.288298815489
    y: 0.0932160839438
    z: 0.763515770435
  orientation: 
    x: -0.00153529806994
    y: 0.00301402737387
    z: 0.000102277459519
    w: 0.999994277954
---
header: 
  seq: 25789
  stamp: 
    secs: 1450179906
    nsecs: 20183359
  frame_id: world
pose: 
  position: 
    x: 0.288313239813
    y: 0.0932147949934
    z: 0.763529062271
  orientation: 
    x: -0.00157548033167
    y: 0.00292154657654
    z: 0.000108310174255
    w: 0.999994516373
---
header: 
  seq: 25790
  stamp: 
    secs: 1450179906
    nsecs: 28856667
  frame_id: world
pose: 
  position: 
    x: 0.288309901953
    y: 0.0932363197207
    z: 0.763515651226
  orientation: 
    x: -0.00119231385179
    y: 0.00240104575641
    z: 0.000145555794006
    w: 0.999996423721
---
header: 
  seq: 25791
  stamp: 
    secs: 1450179906
    nsecs: 36904145
  frame_id: world
pose: 
  position: 
    x: 0.288307130337
    y: 0.0932151079178
    z: 0.763518035412
  orientation: 
    x: -0.00127559923567
    y: 0.002508984413
    z: 0.000130904183607
    w: 0.999996066093
---
header: 
  seq: 25792
  stamp: 
    secs: 1450179906
    nsecs: 45264797
  frame_id: world
pose: 
  position: 
    x: 0.288313448429
    y: 0.0932234525681
    z: 0.763510584831
  orientation: 
    x: -0.0013645470608
    y: 0.0026299955789
    z: 0.000197262314032
    w: 0.999995589256
---
header: 
  seq: 25793
  stamp: 
    secs: 1450179906
    nsecs: 53494806
  frame_id: world
pose: 
  position: 
    x: 0.288312196732
    y: 0.0932158157229
    z: 0.763515710831
  orientation: 
    x: -0.00135977042373
    y: 0.00257786922157
    z: 0.00013459456386
    w: 0.999995827675
---
header: 
  seq: 25794
  stamp: 
    secs: 1450179906
    nsecs: 61993644
  frame_id: world
pose: 
  position: 
    x: 0.288314551115
    y: 0.0932116955519
    z: 0.763507425785
  orientation: 
    x: -0.00163796672132
    y: 0.00313404668123
    z: 0.000162661075592
    w: 0.999993801117
---
header: 
  seq: 25795
  stamp: 
    secs: 1450179906
    nsecs: 70589932
  frame_id: world
pose: 
  position: 
    x: 0.288309305906
    y: 0.0932250022888
    z: 0.763492584229
  orientation: 
    x: -0.00126037036534
    y: 0.00260257604532
    z: 0.000209804187762
    w: 0.999995827675
---
header: 
  seq: 25796
  stamp: 
    secs: 1450179906
    nsecs: 79052931
  frame_id: world
pose: 
  position: 
    x: 0.288312792778
    y: 0.093220166862
    z: 0.763503015041
  orientation: 
    x: -0.00154548522551
    y: 0.00305507727899
    z: 0.000142797391163
    w: 0.999994158745
---
header: 
  seq: 25797
  stamp: 
    secs: 1450179906
    nsecs: 88865766
  frame_id: world
pose: 
  position: 
    x: 0.288322597742
    y: 0.0932361409068
    z: 0.763503432274
  orientation: 
    x: -0.00160594959743
    y: 0.00307464203797
    z: 0.000192291437997
    w: 0.999994039536
---
header: 
  seq: 25798
  stamp: 
    secs: 1450179906
    nsecs: 95308767
  frame_id: world
pose: 
  position: 
    x: 0.288303732872
    y: 0.0932151824236
    z: 0.763519704342
  orientation: 
    x: -0.00153575313743
    y: 0.00284184911288
    z: 0.000170904022525
    w: 0.999994754791
---
header: 
  seq: 25799
  stamp: 
    secs: 1450179906
    nsecs: 103368627
  frame_id: world
pose: 
  position: 
    x: 0.288311988115
    y: 0.0932153016329
    z: 0.763515412807
  orientation: 
    x: -0.00131033023354
    y: 0.00255754915997
    z: 0.000141776254168
    w: 0.999995946884
---
header: 
  seq: 25800
  stamp: 
    secs: 1450179906
    nsecs: 111256870
  frame_id: world
pose: 
  position: 
    x: 0.288314014673
    y: 0.0932202786207
    z: 0.763517141342
  orientation: 
    x: -0.00123153033201
    y: 0.00241725589149
    z: 0.000194644613657
    w: 0.999996304512
---
header: 
  seq: 25801
  stamp: 
    secs: 1450179906
    nsecs: 120269976
  frame_id: world
pose: 
  position: 
    x: 0.288305133581
    y: 0.0932195186615
    z: 0.763508677483
  orientation: 
    x: -0.00140399800148
    y: 0.00273856986314
    z: 0.000150269654114
    w: 0.999995350838
---
header: 
  seq: 25802
  stamp: 
    secs: 1450179906
    nsecs: 129948100
  frame_id: world
pose: 
  position: 
    x: 0.288303047419
    y: 0.0932185053825
    z: 0.763513505459
  orientation: 
    x: -0.00127043935936
    y: 0.00254981941544
    z: 0.000125502338051
    w: 0.999995946884
---
header: 
  seq: 25803
  stamp: 
    secs: 1450179906
    nsecs: 136292251
  frame_id: world
pose: 
  position: 
    x: 0.288311064243
    y: 0.0932082906365
    z: 0.763515293598
  orientation: 
    x: -0.0016124631511
    y: 0.00301103107631
    z: 0.000151096246555
    w: 0.999994158745
---
header: 
  seq: 25804
  stamp: 
    secs: 1450179906
    nsecs: 145007826
  frame_id: world
pose: 
  position: 
    x: 0.288312405348
    y: 0.0932380482554
    z: 0.763533890247
  orientation: 
    x: -0.0016898837639
    y: 0.00315895793028
    z: 0.000173936568899
    w: 0.999993562698
---
header: 
  seq: 25805
  stamp: 
    secs: 1450179906
    nsecs: 153428940
  frame_id: world
pose: 
  position: 
    x: 0.288307189941
    y: 0.0932435914874
    z: 0.763525664806
  orientation: 
    x: -0.00167436397169
    y: 0.00307008693926
    z: 0.00015950431407
    w: 0.999993920326
---
header: 
  seq: 25806
  stamp: 
    secs: 1450179906
    nsecs: 161862351
  frame_id: world
pose: 
  position: 
    x: 0.288294404745
    y: 0.0932247787714
    z: 0.763531208038
  orientation: 
    x: -0.00131697254255
    y: 0.00245762523264
    z: 0.000171706429683
    w: 0.999996185303
---
header: 
  seq: 25807
  stamp: 
    secs: 1450179906
    nsecs: 170527444
  frame_id: world
pose: 
  position: 
    x: 0.288307011127
    y: 0.0932226479053
    z: 0.763536095619
  orientation: 
    x: -0.00132278283127
    y: 0.00247295899317
    z: 9.18732694117e-05
    w: 0.999996066093
---
header: 
  seq: 25808
  stamp: 
    secs: 1450179906
    nsecs: 180435782
  frame_id: world
pose: 
  position: 
    x: 0.288307070732
    y: 0.0932158157229
    z: 0.7635435462
  orientation: 
    x: -0.00156047521159
    y: 0.00272723077796
    z: 0.000171388237504
    w: 0.999995112419
---
header: 
  seq: 25809
  stamp: 
    secs: 1450179906
    nsecs: 187107548
  frame_id: world
pose: 
  position: 
    x: 0.288313359022
    y: 0.093228712678
    z: 0.763533949852
  orientation: 
    x: -0.00150757725351
    y: 0.00285476073623
    z: 0.00012476441043
    w: 0.999994874001
---
header: 
  seq: 25810
  stamp: 
    secs: 1450179906
    nsecs: 195098166
  frame_id: world
pose: 
  position: 
    x: 0.2883040905
    y: 0.0932299420238
    z: 0.763520479202
  orientation: 
    x: -0.00135240470991
    y: 0.00265168398619
    z: 0.000123600271763
    w: 0.999995589256
---
header: 
  seq: 25811
  stamp: 
    secs: 1450179906
    nsecs: 203556906
  frame_id: world
pose: 
  position: 
    x: 0.288298934698
    y: 0.0932148173451
    z: 0.7635461092
  orientation: 
    x: -0.00145119300578
    y: 0.00269449246116
    z: 0.000155288726091
    w: 0.999995350838
---
header: 
  seq: 25812
  stamp: 
    secs: 1450179906
    nsecs: 211755070
  frame_id: world
pose: 
  position: 
    x: 0.28830704093
    y: 0.093219615519
    z: 0.763542711735
  orientation: 
    x: -0.00150247768033
    y: 0.00269288546406
    z: 0.000113580892503
    w: 0.999995231628
---
header: 
  seq: 25813
  stamp: 
    secs: 1450179906
    nsecs: 220217330
  frame_id: world
pose: 
  position: 
    x: 0.288306385279
    y: 0.0932144597173
    z: 0.763532102108
  orientation: 
    x: -0.00154391734395
    y: 0.00279967417009
    z: 8.83040484041e-05
    w: 0.999994874001
---
header: 
  seq: 25814
  stamp: 
    secs: 1450179906
    nsecs: 229047524
  frame_id: world
pose: 
  position: 
    x: 0.288307964802
    y: 0.0932218432426
    z: 0.763528347015
  orientation: 
    x: -0.00131656625308
    y: 0.00243733054958
    z: 7.69525431679e-05
    w: 0.999996185303
---
header: 
  seq: 25815
  stamp: 
    secs: 1450179906
    nsecs: 236409436
  frame_id: world
pose: 
  position: 
    x: 0.288299709558
    y: 0.0932230502367
    z: 0.763531029224
  orientation: 
    x: -0.00153866515029
    y: 0.00285301078111
    z: 0.00014378594642
    w: 0.999994754791
---
header: 
  seq: 25816
  stamp: 
    secs: 1450179906
    nsecs: 244816068
  frame_id: world
pose: 
  position: 
    x: 0.288320600986
    y: 0.0932399183512
    z: 0.763522267342
  orientation: 
    x: -0.00156386033632
    y: 0.00302379997447
    z: 0.000199784160941
    w: 0.999994277954
---
header: 
  seq: 25817
  stamp: 
    secs: 1450179906
    nsecs: 253109578
  frame_id: world
pose: 
  position: 
    x: 0.288302361965
    y: 0.0932162851095
    z: 0.763523459435
  orientation: 
    x: -0.00143687101081
    y: 0.00270212627947
    z: 0.000166419005836
    w: 0.999995350838
---
header: 
  seq: 25818
  stamp: 
    secs: 1450179906
    nsecs: 261479514
  frame_id: world
pose: 
  position: 
    x: 0.28830486536
    y: 0.0932147800922
    z: 0.76351827383
  orientation: 
    x: -0.00140844355337
    y: 0.00269139721058
    z: 0.000143735538586
    w: 0.999995470047
---
header: 
  seq: 25819
  stamp: 
    secs: 1450179906
    nsecs: 269782854
  frame_id: world
pose: 
  position: 
    x: 0.288313418627
    y: 0.0932123437524
    z: 0.763515532017
  orientation: 
    x: -0.00143805134576
    y: 0.00285059586167
    z: 0.000219782508793
    w: 0.999994874001
---
header: 
  seq: 25820
  stamp: 
    secs: 1450179906
    nsecs: 283277322
  frame_id: world
pose: 
  position: 
    x: 0.288309961557
    y: 0.0932237952948
    z: 0.763500332832
  orientation: 
    x: -0.00114036549348
    y: 0.00226108287461
    z: 0.000172850122908
    w: 0.999996781349
---
header: 
  seq: 25821
  stamp: 
    secs: 1450179906
    nsecs: 286460675
  frame_id: world
pose: 
  position: 
    x: 0.28830742836
    y: 0.0932198837399
    z: 0.76347976923
  orientation: 
    x: -0.00135993864387
    y: 0.0028953331057
    z: 0.000196298089577
    w: 0.999994874001
---
header: 
  seq: 25822
  stamp: 
    secs: 1450179906
    nsecs: 296376118
  frame_id: world
pose: 
  position: 
    x: 0.288324713707
    y: 0.0932239815593
    z: 0.763497710228
  orientation: 
    x: -0.00145388115197
    y: 0.00289530795999
    z: 0.000179476759513
    w: 0.999994754791
---
header: 
  seq: 25823
  stamp: 
    secs: 1450179906
    nsecs: 303040281
  frame_id: world
pose: 
  position: 
    x: 0.288321852684
    y: 0.0932315140963
    z: 0.763493299484
  orientation: 
    x: -0.00162983557675
    y: 0.00318485009484
    z: 0.000164463388501
    w: 0.999993681908
---
header: 
  seq: 25824
  stamp: 
    secs: 1450179906
    nsecs: 311544918
  frame_id: world
pose: 
  position: 
    x: 0.288311868906
    y: 0.0932187512517
    z: 0.763504505157
  orientation: 
    x: -0.00139937677886
    y: 0.00284886779264
    z: 0.000198711175472
    w: 0.99999499321
---
header: 
  seq: 25825
  stamp: 
    secs: 1450179906
    nsecs: 320554922
  frame_id: world
pose: 
  position: 
    x: 0.288313448429
    y: 0.0932205095887
    z: 0.763502717018
  orientation: 
    x: -0.00138869171496
    y: 0.00274290586822
    z: 0.000144797333633
    w: 0.999995350838
---
header: 
  seq: 25826
  stamp: 
    secs: 1450179906
    nsecs: 328896368
  frame_id: world
pose: 
  position: 
    x: 0.288310080767
    y: 0.0932190269232
    z: 0.763519644737
  orientation: 
    x: -0.0015769356396
    y: 0.00305977859534
    z: 0.00014060518879
    w: 0.999994158745
---
header: 
  seq: 25827
  stamp: 
    secs: 1450179906
    nsecs: 336558196
  frame_id: world
pose: 
  position: 
    x: 0.28830191493
    y: 0.0932257845998
    z: 0.763520956039
  orientation: 
    x: -0.00140810513403
    y: 0.00274701509625
    z: 0.000155507703312
    w: 0.999995231628
---
header: 
  seq: 25828
  stamp: 
    secs: 1450179906
    nsecs: 344975978
  frame_id: world
pose: 
  position: 
    x: 0.288327902555
    y: 0.093240454793
    z: 0.763503670692
  orientation: 
    x: -0.00154830061365
    y: 0.00300743477419
    z: 0.000138955540024
    w: 0.999994277954
---
header: 
  seq: 25829
  stamp: 
    secs: 1450179906
    nsecs: 353304129
  frame_id: world
pose: 
  position: 
    x: 0.288314938545
    y: 0.0932184010744
    z: 0.763521492481
  orientation: 
    x: -0.00155945622828
    y: 0.0028900471516
    z: 0.000137306342367
    w: 0.999994635582
---
header: 
  seq: 25830
  stamp: 
    secs: 1450179906
    nsecs: 361592474
  frame_id: world
pose: 
  position: 
    x: 0.288316577673
    y: 0.0932266414165
    z: 0.763530015945
  orientation: 
    x: -0.00173537794035
    y: 0.00325511442497
    z: 0.000148042396177
    w: 0.99999320507
---
header: 
  seq: 25831
  stamp: 
    secs: 1450179906
    nsecs: 369979732
  frame_id: world
pose: 
  position: 
    x: 0.288306117058
    y: 0.0932173132896
    z: 0.763529956341
  orientation: 
    x: -0.00152868230361
    y: 0.00277117197402
    z: 0.000172954023583
    w: 0.99999499321
---
header: 
  seq: 25832
  stamp: 
    secs: 1450179906
    nsecs: 378618507
  frame_id: world
pose: 
  position: 
    x: 0.288302391768
    y: 0.0932152047753
    z: 0.763529360294
  orientation: 
    x: -0.00150174624287
    y: 0.00273415050469
    z: 0.000144982623169
    w: 0.999995112419
---
header: 
  seq: 25833
  stamp: 
    secs: 1450179906
    nsecs: 386477729
  frame_id: world
pose: 
  position: 
    x: 0.288301646709
    y: 0.093214340508
    z: 0.763544738293
  orientation: 
    x: -0.00175126164686
    y: 0.00322025036439
    z: 0.00012582616182
    w: 0.99999332428
---
header: 
  seq: 25834
  stamp: 
    secs: 1450179906
    nsecs: 396313772
  frame_id: world
pose: 
  position: 
    x: 0.288299977779
    y: 0.0932148173451
    z: 0.763540029526
  orientation: 
    x: -0.00147780717816
    y: 0.00265147467144
    z: 0.000106319886982
    w: 0.999995470047
---
header: 
  seq: 25835
  stamp: 
    secs: 1450179906
    nsecs: 403303869
  frame_id: world
pose: 
  position: 
    x: 0.288305163383
    y: 0.0932226777077
    z: 0.763546586037
  orientation: 
    x: -0.00168205413502
    y: 0.00311970780604
    z: 0.00013448347454
    w: 0.999993801117
---
header: 
  seq: 25836
  stamp: 
    secs: 1450179906
    nsecs: 411609103
  frame_id: world
pose: 
  position: 
    x: 0.288312077522
    y: 0.0932184457779
    z: 0.763521432877
  orientation: 
    x: -0.00115610507783
    y: 0.00215501547791
    z: 0.00011912946502
    w: 0.999997019768
---
header: 
  seq: 25837
  stamp: 
    secs: 1450179906
    nsecs: 420220412
  frame_id: world
pose: 
  position: 
    x: 0.288309901953
    y: 0.093210272491
    z: 0.763518452644
  orientation: 
    x: -0.00162277533673
    y: 0.00315182260238
    z: 0.000158700408065
    w: 0.999993801117
---
header: 
